date;time;accX;accY;accZ;baro;baro_smooth;battery_low;battery_lower;battery_percentage;battery_state;camera_state;dist_V0;down_visual_state;drone_battery_left;drone_fly_time_left;drone_hover;east_speed;electrical_machinery_state;em_ground;em_open;em_sky;error_flag_VO;factory_mode;fly_mode;fly_speed;fly_time;front_in;front_lsc;front_out;gravity_state;ground_speed;gyroX;gyroY;gyroZ;height;imu_calibration_state;imu_state;latitude;light_strength;longitude;mov_valid_posX;mov_valid_posY;mov_valid_posZ;mov_valid_velX;mov_valid_velY;mov_valid_velZ;north_speed;outage_recording;pitch;posCov1;posCov2;posCov3;posCov4;posCov5;posCov6;posX;posX_VO;posY;posY_VO;posZ;posZ_VO;power_state;pressure_state;qW;qX;qY;qZ;roll;rtkAlt_VO;rtkLat_VO;rtkLong_VO;smart_video_exit_mode;temperature_height;throw_fly_timer;tof;tofUncertainty;velCov1;velCov2;velCov3;velCov4;velCov5;velCov6;velD;velE;velN;velX;velX_VO;velY;velY_VO;velZ;velZ_VO;vel_VO;vgX;vgY;vgZ;wifi_disturb;wifi_strength;wind_state;yaw;left_right;forward_backward;up_down;yaw;fast_mode;
2024-04-03 15:16:33,336;1712150193.337;2.1174098365e-03;-2.4513187236e-04;-9.8063766956e-01;1.4942527771e+02;1.4920977783e+02;0.0000000000e+00;0.0000000000e+00;6.8000000000e+01;0.0000000000e+00;0.0000000000e+00;0.0000000000e+00;0.0000000000e+00;0.0000000000e+00;3.7760000000e+03;0.0000000000e+00;0.0000000000e+00;0.0000000000e+00;0.0000000000e+00;1.0000000000e+00;1.0000000000e+00;2.1900000000e+02;0.0000000000e+00;6.0000000000e+00;0.0000000000e+00;-6.4833000000e+04;0.0000000000e+00;0.0000000000e+00;0.0000000000e+00;0.0000000000e+00;0.0000000000e+00;-4.0364176966e-03;3.7615895271e-02;-4.6741857659e-04;1.1000000000e+01;0.0000000000e+00;0.0000000000e+00;0.0000000000e+00;0.0000000000e+00;0.0000000000e+00;1.0000000000e+00;1.0000000000e+00;0.0000000000e+00;1.0000000000e+00;1.0000000000e+00;0.0000000000e+00;0.0000000000e+00;0.0000000000e+00;-3.8067883034e-03;5.9633639466e-06;0.0000000000e+00;2.4416722107e+02;5.9633639466e-06;0.0000000000e+00;5.9633639466e-06;-1.5646738052e+01;3.4481543303e-01;-4.0563190460e+01;-2.8515022993e-01;1.8623260260e+00;-1.4920977783e+02;0.0000000000e+00;0.0000000000e+00;9.8794192076e-01;2.5672155898e-03;-2.3288077209e-03;-1.5478605032e-01;5.7934862589e-03;0.0000000000e+00;0.0000000000e+00;0.0000000000e+00;0.0000000000e+00;0.0000000000e+00;0.0000000000e+00;-1.2209999561e+00;2.4419999123e-01;5.9633639466e-06;0.0000000000e+00;-2.2122244537e-01;5.9633639466e-06;1.1811161041e-01;5.9633639466e-06;-2.4837329984e-02;4.5035951771e-03;1.1846268550e-02;-1.3000000000e-02;1.1846268550e-02;-8.0000000000e-03;4.5035951771e-03;-3.1000000000e-02;-2.4837329984e-02;0.0000000000e+00;0.0000000000e+00;0.0000000000e+00;0.0000000000e+00;0.0000000000e+00;9.0000000000e+01;0.0000000000e+00;-3.1081263113e-01;0.0000000000e+00;1.0000000000e+01;0.0000000000e+00;0.0000000000e+00;0.0000000000e+00;
2024-04-03 15:16:33,442;1712150193.442;-3.1410139054e-03;9.8035326228e-03;-9.9053823948e-01;1.4941212463e+02;1.4921284485e+02;0.0000000000e+00;0.0000000000e+00;6.8000000000e+01;0.0000000000e+00;0.0000000000e+00;0.0000000000e+00;0.0000000000e+00;0.0000000000e+00;3.7760000000e+03;0.0000000000e+00;0.0000000000e+00;0.0000000000e+00;0.0000000000e+00;1.0000000000e+00;1.0000000000e+00;2.1900000000e+02;0.0000000000e+00;6.0000000000e+00;0.0000000000e+00;-6.4832000000e+04;0.0000000000e+00;0.0000000000e+00;0.0000000000e+00;0.0000000000e+00;0.0000000000e+00;-1.6381101683e-02;7.1272081695e-03;-9.6949806903e-05;1.1000000000e+01;0.0000000000e+00;0.0000000000e+00;0.0000000000e+00;0.0000000000e+00;0.0000000000e+00;1.0000000000e+00;1.0000000000e+00;1.0000000000e+00;1.0000000000e+00;1.0000000000e+00;1.0000000000e+00;0.0000000000e+00;0.0000000000e+00;-5.4099788418e-04;6.0319375734e-06;0.0000000000e+00;2.4470213318e+02;6.0319375734e-06;0.0000000000e+00;6.0319375734e-06;-1.5648820877e+01;3.4386345744e-01;-4.0566955566e+01;-2.8689336777e-01;1.8576257229e+00;-1.4921284485e+02;0.0000000000e+00;0.0000000000e+00;9.8797219992e-01;2.7805487625e-03;-7.0890865754e-04;-1.5460528433e-01;5.7134423422e-03;0.0000000000e+00;0.0000000000e+00;0.0000000000e+00;0.0000000000e+00;0.0000000000e+00;0.0000000000e+00;-1.2280000448e+00;2.4560001493e-01;6.0319375734e-06;0.0000000000e+00;4.0475159883e-02;6.0319375734e-06;2.2535800934e-01;6.0319375734e-06;-1.4479220845e-02;5.1439809613e-03;1.4229511842e-02;-3.0000000000e-03;1.4229511842e-02;-7.0000000000e-03;5.1439809613e-03;-9.0000000000e-03;-1.4479220845e-02;0.0000000000e+00;0.0000000000e+00;0.0000000000e+00;0.0000000000e+00;0.0000000000e+00;9.0000000000e+01;0.0000000000e+00;-3.1045560027e-01;0.0000000000e+00;1.0000000000e+01;0.0000000000e+00;0.0000000000e+00;0.0000000000e+00;
2024-04-03 15:16:33,592;1712150193.592;-1.2227334082e-03;1.9187828293e-03;-9.8501020670e-01;1.4935147095e+02;1.4921171570e+02;0.0000000000e+00;0.0000000000e+00;6.8000000000e+01;0.0000000000e+00;0.0000000000e+00;0.0000000000e+00;0.0000000000e+00;0.0000000000e+00;3.7760000000e+03;0.0000000000e+00;0.0000000000e+00;0.0000000000e+00;0.0000000000e+00;1.0000000000e+00;1.0000000000e+00;2.1900000000e+02;0.0000000000e+00;6.0000000000e+00;0.0000000000e+00;-6.4831000000e+04;0.0000000000e+00;0.0000000000e+00;0.0000000000e+00;0.0000000000e+00;0.0000000000e+00;1.2658468448e-02;-4.4724181294e-02;7.3605934158e-03;1.1000000000e+01;0.0000000000e+00;0.0000000000e+00;0.0000000000e+00;0.0000000000e+00;0.0000000000e+00;1.0000000000e+00;1.0000000000e+00;1.0000000000e+00;1.0000000000e+00;1.0000000000e+00;1.0000000000e+00;0.0000000000e+00;0.0000000000e+00;-4.2459496558e-03;6.0712968661e-06;0.0000000000e+00;2.4471873474e+02;6.0712968661e-06;0.0000000000e+00;6.0712968661e-06;-1.5652070045e+01;3.4222805500e-01;-4.0569923401e+01;-2.8950470686e-01;1.8572345972e+00;-1.4921171570e+02;0.0000000000e+00;0.0000000000e+00;9.8798370361e-01;5.0005866215e-03;-2.9303948395e-03;-1.5444935858e-01;1.0786400589e-02;0.0000000000e+00;0.0000000000e+00;0.0000000000e+00;0.0000000000e+00;0.0000000000e+00;0.0000000000e+00;-1.2319999933e+00;2.4639999866e-01;6.0712968661e-06;0.0000000000e+00;3.1104966998e-02;6.0712968661e-06;1.7687320709e-01;6.0712968661e-06;2.8045009822e-03;1.5532429330e-02;1.7378326505e-02;-5.0000000000e-03;1.7378326505e-02;0.0000000000e+00;1.5532429330e-02;3.0000000000e-03;2.8045009822e-03;0.0000000000e+00;0.0000000000e+00;0.0000000000e+00;0.0000000000e+00;0.0000000000e+00;9.0000000000e+01;0.0000000000e+00;-3.1012255160e-01;0.0000000000e+00;1.0000000000e+01;0.0000000000e+00;0.0000000000e+00;0.0000000000e+00;
2024-04-03 15:16:33,693;1712150193.694;-6.8974625319e-03;9.2596504837e-03;-9.9428641796e-01;1.4943608093e+02;1.4921212769e+02;0.0000000000e+00;0.0000000000e+00;6.8000000000e+01;0.0000000000e+00;0.0000000000e+00;0.0000000000e+00;0.0000000000e+00;0.0000000000e+00;3.7760000000e+03;0.0000000000e+00;0.0000000000e+00;0.0000000000e+00;0.0000000000e+00;1.0000000000e+00;1.0000000000e+00;2.1900000000e+02;0.0000000000e+00;6.0000000000e+00;0.0000000000e+00;-6.4830000000e+04;0.0000000000e+00;0.0000000000e+00;0.0000000000e+00;0.0000000000e+00;0.0000000000e+00;-1.0261325538e-01;8.0239027739e-03;-1.6626146389e-03;1.1000000000e+01;0.0000000000e+00;0.0000000000e+00;0.0000000000e+00;0.0000000000e+00;0.0000000000e+00;1.0000000000e+00;1.0000000000e+00;1.0000000000e+00;1.0000000000e+00;1.0000000000e+00;1.0000000000e+00;0.0000000000e+00;0.0000000000e+00;-7.7565350868e-03;6.0712968661e-06;0.0000000000e+00;2.4471873474e+02;6.0712968661e-06;0.0000000000e+00;6.0712968661e-06;-1.5652070045e+01;3.4120595455e-01;-4.0569923401e+01;-2.9009670019e-01;1.8572345972e+00;-1.4921212769e+02;0.0000000000e+00;0.0000000000e+00;9.8799663782e-01;2.4514331017e-03;-4.3083615601e-03;-1.5439622104e-01;6.1744432976e-03;0.0000000000e+00;0.0000000000e+00;0.0000000000e+00;0.0000000000e+00;0.0000000000e+00;0.0000000000e+00;-1.2319999933e+00;2.4639999866e-01;6.0712968661e-06;0.0000000000e+00;3.1104966998e-02;6.0712968661e-06;1.7687320709e-01;6.0712968661e-06;4.7536552884e-03;2.0420925692e-02;2.3523334414e-02;-5.0000000000e-03;2.3523334414e-02;0.0000000000e+00;2.0420925692e-02;3.0000000000e-03;4.7536552884e-03;0.0000000000e+00;0.0000000000e+00;0.0000000000e+00;0.0000000000e+00;0.0000000000e+00;9.0000000000e+01;0.0000000000e+00;-3.1001254630e-01;0.0000000000e+00;1.0000000000e+01;0.0000000000e+00;0.0000000000e+00;0.0000000000e+00;
2024-04-03 15:16:33,796;1712150193.796;-8.2640768960e-03;9.1240582988e-03;-1.0015399456e+00;1.4940971375e+02;1.4921244812e+02;0.0000000000e+00;0.0000000000e+00;6.8000000000e+01;0.0000000000e+00;0.0000000000e+00;0.0000000000e+00;0.0000000000e+00;0.0000000000e+00;3.7760000000e+03;0.0000000000e+00;0.0000000000e+00;0.0000000000e+00;0.0000000000e+00;1.0000000000e+00;1.0000000000e+00;2.1900000000e+02;0.0000000000e+00;6.0000000000e+00;0.0000000000e+00;-6.4829000000e+04;0.0000000000e+00;0.0000000000e+00;0.0000000000e+00;0.0000000000e+00;0.0000000000e+00;-6.3349984586e-02;-3.2574512064e-02;9.0559916571e-03;1.1000000000e+01;0.0000000000e+00;0.0000000000e+00;0.0000000000e+00;0.0000000000e+00;0.0000000000e+00;1.0000000000e+00;1.0000000000e+00;1.0000000000e+00;1.0000000000e+00;1.0000000000e+00;1.0000000000e+00;0.0000000000e+00;0.0000000000e+00;-8.9212791353e-03;6.0123043113e-06;0.0000000000e+00;2.4409475708e+02;6.0123043113e-06;0.0000000000e+00;6.0123043113e-06;-1.5657178879e+01;3.4021714330e-01;-4.0570896149e+01;-2.9068744183e-01;1.8584582806e+00;-1.4921244812e+02;0.0000000000e+00;0.0000000000e+00;9.8800224066e-01;-8.7516463827e-04;-4.3780026026e-03;-1.5437518060e-01;-3.7761934975e-04;0.0000000000e+00;0.0000000000e+00;0.0000000000e+00;0.0000000000e+00;0.0000000000e+00;0.0000000000e+00;-1.2259999514e+00;2.4519999325e-01;6.0123043113e-06;0.0000000000e+00;-5.4594725370e-02;6.0123043113e-06;-3.8367271423e-02;6.0123043113e-06;3.9477162063e-03;1.8755400553e-02;2.4824120104e-02;-2.0000000000e-03;2.4824120104e-02;4.0000000000e-03;1.8755400553e-02;6.0000000000e-03;3.9477162063e-03;0.0000000000e+00;0.0000000000e+00;0.0000000000e+00;0.0000000000e+00;0.0000000000e+00;9.0000000000e+01;0.0000000000e+00;-3.0999485065e-01;0.0000000000e+00;1.0000000000e+01;0.0000000000e+00;0.0000000000e+00;0.0000000000e+00;
2024-04-03 15:16:33,898;1712150193.898;5.6315092370e-03;-6.5011489205e-03;-1.0020933151e+00;1.4937541199e+02;1.4921188354e+02;0.0000000000e+00;0.0000000000e+00;6.8000000000e+01;0.0000000000e+00;0.0000000000e+00;0.0000000000e+00;0.0000000000e+00;0.0000000000e+00;3.7760000000e+03;0.0000000000e+00;0.0000000000e+00;0.0000000000e+00;0.0000000000e+00;1.0000000000e+00;1.0000000000e+00;2.1900000000e+02;0.0000000000e+00;6.0000000000e+00;0.0000000000e+00;-6.4828000000e+04;0.0000000000e+00;0.0000000000e+00;0.0000000000e+00;0.0000000000e+00;0.0000000000e+00;-3.1911311671e-03;-9.8739024252e-03;7.5640091673e-03;1.1000000000e+01;0.0000000000e+00;0.0000000000e+00;0.0000000000e+00;0.0000000000e+00;0.0000000000e+00;1.0000000000e+00;1.0000000000e+00;1.0000000000e+00;1.0000000000e+00;1.0000000000e+00;1.0000000000e+00;0.0000000000e+00;0.0000000000e+00;-1.0992435915e-02;6.0123043113e-06;0.0000000000e+00;2.4409475708e+02;6.0123043113e-06;0.0000000000e+00;6.0123043113e-06;-1.5657178879e+01;3.3904278278e-01;-4.0570896149e+01;-2.9178807139e-01;1.8584582806e+00;-1.4921188354e+02;0.0000000000e+00;0.0000000000e+00;9.8804408312e-01;-2.0880899392e-03;-5.2369940095e-03;-1.5406854451e-01;-2.5125403410e-03;0.0000000000e+00;0.0000000000e+00;0.0000000000e+00;0.0000000000e+00;0.0000000000e+00;0.0000000000e+00;-1.2259999514e+00;2.4519999325e-01;6.0123043113e-06;0.0000000000e+00;-5.4594725370e-02;6.0123043113e-06;-3.8367271423e-02;6.0123043113e-06;9.3049257994e-03;7.7378903516e-03;2.7981812134e-02;-2.0000000000e-03;2.7981812134e-02;4.0000000000e-03;7.7378903516e-03;6.0000000000e-03;9.3049257994e-03;0.0000000000e+00;0.0000000000e+00;0.0000000000e+00;0.0000000000e+00;0.0000000000e+00;9.0000000000e+01;0.0000000000e+00;-3.0938811326e-01;0.0000000000e+00;1.0000000000e+01;0.0000000000e+00;0.0000000000e+00;0.0000000000e+00;
2024-04-03 15:16:33,999;1712150193.999;5.9780431911e-03;-4.8852711916e-04;-1.0006468296e+00;1.4935696411e+02;1.4921121216e+02;0.0000000000e+00;0.0000000000e+00;6.8000000000e+01;0.0000000000e+00;0.0000000000e+00;0.0000000000e+00;0.0000000000e+00;0.0000000000e+00;3.7760000000e+03;0.0000000000e+00;0.0000000000e+00;0.0000000000e+00;0.0000000000e+00;1.0000000000e+00;1.0000000000e+00;2.1900000000e+02;0.0000000000e+00;6.0000000000e+00;0.0000000000e+00;-6.4827000000e+04;0.0000000000e+00;0.0000000000e+00;0.0000000000e+00;0.0000000000e+00;0.0000000000e+00;-1.4891283587e-02;1.3914180454e-03;1.4926265925e-02;1.1000000000e+01;0.0000000000e+00;0.0000000000e+00;0.0000000000e+00;0.0000000000e+00;0.0000000000e+00;1.0000000000e+00;1.0000000000e+00;1.0000000000e+00;1.0000000000e+00;1.0000000000e+00;1.0000000000e+00;0.0000000000e+00;0.0000000000e+00;-1.1657620882e-02;6.0319375734e-06;0.0000000000e+00;2.4441496277e+02;6.0319375734e-06;0.0000000000e+00;6.0319375734e-06;-1.5659394264e+01;3.3824226260e-01;-4.0574943542e+01;-2.9405605793e-01;1.8584591150e+00;-1.4921121216e+02;0.0000000000e+00;0.0000000000e+00;9.8805385828e-01;-1.2381245615e-03;-5.7061742991e-03;-1.5399864316e-01;-6.8918128467e-04;0.0000000000e+00;0.0000000000e+00;0.0000000000e+00;0.0000000000e+00;0.0000000000e+00;0.0000000000e+00;-1.2280000448e+00;2.4560001493e-01;6.0319375734e-06;0.0000000000e+00;-7.4617072940e-02;6.0319375734e-06;4.0450096130e-02;6.0319375734e-06;8.8999904692e-03;5.8968603844e-04;3.1553931534e-02;5.0000000000e-03;3.1553931534e-02;-1.3000000000e-02;5.8968603844e-04;5.0000000000e-03;8.8999904692e-03;0.0000000000e+00;0.0000000000e+00;0.0000000000e+00;0.0000000000e+00;0.0000000000e+00;9.0000000000e+01;0.0000000000e+00;-3.0923720008e-01;0.0000000000e+00;1.0000000000e+01;0.0000000000e+00;0.0000000000e+00;0.0000000000e+00;
2024-04-03 15:16:34,102;1712150194.103;-5.5091716349e-03;5.1360735670e-03;-9.9694019556e-01;1.4938076782e+02;1.4921127319e+02;0.0000000000e+00;0.0000000000e+00;6.8000000000e+01;0.0000000000e+00;0.0000000000e+00;0.0000000000e+00;0.0000000000e+00;0.0000000000e+00;3.7760000000e+03;0.0000000000e+00;0.0000000000e+00;0.0000000000e+00;0.0000000000e+00;1.0000000000e+00;1.0000000000e+00;2.1900000000e+02;0.0000000000e+00;6.0000000000e+00;0.0000000000e+00;-6.4826000000e+04;0.0000000000e+00;0.0000000000e+00;0.0000000000e+00;0.0000000000e+00;0.0000000000e+00;-1.0212050751e-02;-8.0675240606e-03;-5.1510874182e-03;1.1000000000e+01;0.0000000000e+00;0.0000000000e+00;0.0000000000e+00;0.0000000000e+00;0.0000000000e+00;1.0000000000e+00;1.0000000000e+00;1.0000000000e+00;1.0000000000e+00;1.0000000000e+00;1.0000000000e+00;0.0000000000e+00;0.0000000000e+00;-1.2408072149e-02;6.0319375734e-06;0.0000000000e+00;2.4441496277e+02;6.0319375734e-06;0.0000000000e+00;6.0319375734e-06;-1.5659394264e+01;3.3777764440e-01;-4.0574943542e+01;-2.9657170177e-01;1.8584591150e+00;-1.4921127319e+02;0.0000000000e+00;0.0000000000e+00;9.8805487156e-01;-1.6473084688e-03;-6.0221599415e-03;-1.5397621691e-01;-1.4007238438e-03;0.0000000000e+00;0.0000000000e+00;0.0000000000e+00;0.0000000000e+00;0.0000000000e+00;0.0000000000e+00;-1.2280000448e+00;2.4560001493e-01;6.0319375734e-06;0.0000000000e+00;-7.4617072940e-02;6.0319375734e-06;4.0450096130e-02;6.0319375734e-06;8.3019239828e-03;-1.5812774654e-03;3.6016680300e-02;5.0000000000e-03;3.6016680300e-02;-1.3000000000e-02;-1.5812774654e-03;5.0000000000e-03;8.3019239828e-03;0.0000000000e+00;0.0000000000e+00;0.0000000000e+00;0.0000000000e+00;0.0000000000e+00;9.0000000000e+01;0.0000000000e+00;-3.0919723740e-01;0.0000000000e+00;1.0000000000e+01;0.0000000000e+00;0.0000000000e+00;0.0000000000e+00;
2024-04-03 15:16:34,205;1712150194.205;2.9786578380e-03;5.6285290048e-03;-9.9697625637e-01;1.4942308044e+02;1.4921113586e+02;0.0000000000e+00;0.0000000000e+00;6.8000000000e+01;0.0000000000e+00;0.0000000000e+00;0.0000000000e+00;0.0000000000e+00;0.0000000000e+00;3.7760000000e+03;0.0000000000e+00;0.0000000000e+00;0.0000000000e+00;0.0000000000e+00;1.0000000000e+00;1.0000000000e+00;2.1900000000e+02;0.0000000000e+00;6.0000000000e+00;0.0000000000e+00;-6.4825000000e+04;0.0000000000e+00;0.0000000000e+00;0.0000000000e+00;0.0000000000e+00;0.0000000000e+00;-2.2984430194e-02;-1.2646319345e-02;-5.4919645190e-03;1.1000000000e+01;0.0000000000e+00;0.0000000000e+00;0.0000000000e+00;0.0000000000e+00;0.0000000000e+00;1.0000000000e+00;1.0000000000e+00;1.0000000000e+00;1.0000000000e+00;1.0000000000e+00;1.0000000000e+00;0.0000000000e+00;0.0000000000e+00;-1.3129370783e-02;6.0025013227e-06;0.0000000000e+00;2.4444221497e+02;6.0025013227e-06;0.0000000000e+00;6.0025013227e-06;-1.5659857750e+01;3.3758977056e-01;-4.0580463409e+01;-2.9927307367e-01;1.8593711853e+00;-1.4921113586e+02;0.0000000000e+00;0.0000000000e+00;9.8805660009e-01;-2.2655318025e-03;-6.2908390537e-03;-1.5394644439e-01;-2.5400452702e-03;0.0000000000e+00;0.0000000000e+00;0.0000000000e+00;0.0000000000e+00;0.0000000000e+00;0.0000000000e+00;-1.2250000238e+00;2.4500000477e-01;6.0025013227e-06;0.0000000000e+00;-3.4786731005e-02;6.0025013227e-06;1.0601043701e-02;6.0025013227e-06;8.0385059118e-03;-4.2866980657e-03;3.9039224386e-02;1.6000000000e-02;3.9039224386e-02;-1.9000000000e-02;-4.2866980657e-03;7.0000000000e-03;8.0385059118e-03;0.0000000000e+00;0.0000000000e+00;0.0000000000e+00;0.0000000000e+00;0.0000000000e+00;9.0000000000e+01;0.0000000000e+00;-3.0914584595e-01;0.0000000000e+00;1.0000000000e+01;0.0000000000e+00;0.0000000000e+00;0.0000000000e+00;
2024-04-03 15:16:34,305;1712150194.306;7.8268740326e-03;2.5005652569e-03;-1.0052959919e+00;1.4943103027e+02;1.4921060181e+02;0.0000000000e+00;0.0000000000e+00;6.8000000000e+01;0.0000000000e+00;0.0000000000e+00;0.0000000000e+00;0.0000000000e+00;0.0000000000e+00;3.7700000000e+03;0.0000000000e+00;0.0000000000e+00;0.0000000000e+00;0.0000000000e+00;1.0000000000e+00;1.0000000000e+00;2.1900000000e+02;0.0000000000e+00;6.0000000000e+00;0.0000000000e+00;-6.4824000000e+04;0.0000000000e+00;0.0000000000e+00;0.0000000000e+00;0.0000000000e+00;0.0000000000e+00;-9.3860374764e-03;1.0703518987e-02;1.2048290810e-03;1.1000000000e+01;0.0000000000e+00;0.0000000000e+00;0.0000000000e+00;0.0000000000e+00;0.0000000000e+00;1.0000000000e+00;1.0000000000e+00;1.0000000000e+00;1.0000000000e+00;1.0000000000e+00;1.0000000000e+00;0.0000000000e+00;0.0000000000e+00;-1.3297273299e-02;6.0025013227e-06;0.0000000000e+00;2.4444221497e+02;6.0025013227e-06;0.0000000000e+00;6.0025013227e-06;-1.5659857750e+01;3.3827751875e-01;-4.0580463409e+01;-3.0260279775e-01;1.8593711853e+00;-1.4921060181e+02;0.0000000000e+00;0.0000000000e+00;9.8804420233e-01;-2.4894322269e-03;-6.3407965936e-03;-1.5402072668e-01;-2.9661139143e-03;0.0000000000e+00;0.0000000000e+00;0.0000000000e+00;0.0000000000e+00;0.0000000000e+00;0.0000000000e+00;-1.2250000238e+00;2.4500000477e-01;6.0025013227e-06;0.0000000000e+00;-3.4786731005e-02;6.0025013227e-06;1.0601043701e-02;6.0025013227e-06;7.2898808867e-03;-8.5433628410e-03;4.4625297189e-02;1.6000000000e-02;4.4625297189e-02;-1.9000000000e-02;-8.5433628410e-03;7.0000000000e-03;7.2898808867e-03;0.0000000000e+00;0.0000000000e+00;0.0000000000e+00;0.0000000000e+00;0.0000000000e+00;9.0000000000e+01;0.0000000000e+00;-3.0929952847e-01;0.0000000000e+00;1.0000000000e+01;0.0000000000e+00;0.0000000000e+00;0.0000000000e+00;
2024-04-03 15:16:34,407;1712150194.408;-1.3514769264e-02;1.3502513990e-02;-9.9946272373e-01;1.4936233521e+02;1.4921005249e+02;0.0000000000e+00;0.0000000000e+00;6.8000000000e+01;0.0000000000e+00;0.0000000000e+00;0.0000000000e+00;0.0000000000e+00;0.0000000000e+00;3.7700000000e+03;0.0000000000e+00;0.0000000000e+00;0.0000000000e+00;0.0000000000e+00;1.0000000000e+00;1.0000000000e+00;2.1900000000e+02;0.0000000000e+00;6.0000000000e+00;0.0000000000e+00;-6.4823000000e+04;0.0000000000e+00;0.0000000000e+00;0.0000000000e+00;0.0000000000e+00;0.0000000000e+00;1.6317220405e-02;1.1056819931e-02;-3.3048496116e-03;1.1000000000e+01;0.0000000000e+00;0.0000000000e+00;0.0000000000e+00;0.0000000000e+00;0.0000000000e+00;1.0000000000e+00;1.0000000000e+00;1.0000000000e+00;1.0000000000e+00;1.0000000000e+00;1.0000000000e+00;0.0000000000e+00;0.0000000000e+00;-1.3030683283e-02;5.9536009758e-06;0.0000000000e+00;2.4418234253e+02;5.9536009758e-06;0.0000000000e+00;5.9536009758e-06;-1.5657409668e+01;3.3966103196e-01;-4.0589534760e+01;-3.0673795938e-01;1.8625506163e+00;-1.4921005249e+02;0.0000000000e+00;0.0000000000e+00;9.8803764582e-01;-2.3783310317e-03;-6.2231482007e-03;-1.5406911075e-01;-2.7821747781e-03;0.0000000000e+00;0.0000000000e+00;0.0000000000e+00;0.0000000000e+00;0.0000000000e+00;0.0000000000e+00;-1.2200000286e+00;2.4400000274e-01;5.9536009758e-06;0.0000000000e+00;3.1414821744e-02;5.9536009758e-06;-9.3307495117e-03;5.9536009758e-06;7.2669619694e-03;-1.2580864131e-02;5.0368368626e-02;3.0000000000e-02;5.0368368626e-02;-3.3000000000e-02;-1.2580864131e-02;1.1000000000e-02;7.2669619694e-03;0.0000000000e+00;0.0000000000e+00;0.0000000000e+00;0.0000000000e+00;0.0000000000e+00;9.0000000000e+01;0.0000000000e+00;-3.0939554910e-01;0.0000000000e+00;-1.0000000000e+01;0.0000000000e+00;0.0000000000e+00;0.0000000000e+00;
2024-04-03 15:16:34,510;1712150194.510;-5.0767241046e-03;1.1363573372e-02;-1.0070266724e+00;1.4938082886e+02;1.4920893860e+02;0.0000000000e+00;0.0000000000e+00;6.8000000000e+01;0.0000000000e+00;0.0000000000e+00;0.0000000000e+00;0.0000000000e+00;0.0000000000e+00;3.7700000000e+03;0.0000000000e+00;0.0000000000e+00;0.0000000000e+00;0.0000000000e+00;1.0000000000e+00;1.0000000000e+00;2.1900000000e+02;0.0000000000e+00;6.0000000000e+00;0.0000000000e+00;-6.4822000000e+04;0.0000000000e+00;0.0000000000e+00;0.0000000000e+00;0.0000000000e+00;0.0000000000e+00;-7.8594796360e-03;1.0445468128e-01;-5.4624612676e-04;1.1000000000e+01;0.0000000000e+00;0.0000000000e+00;0.0000000000e+00;0.0000000000e+00;0.0000000000e+00;1.0000000000e+00;1.0000000000e+00;1.0000000000e+00;1.0000000000e+00;1.0000000000e+00;1.0000000000e+00;0.0000000000e+00;0.0000000000e+00;-8.5302073582e-03;5.9536009758e-06;0.0000000000e+00;2.4418234253e+02;5.9536009758e-06;0.0000000000e+00;5.9536009758e-06;-1.5657409668e+01;3.4169659019e-01;-4.0589534760e+01;-3.1164005399e-01;1.8625506163e+00;-1.4920893860e+02;0.0000000000e+00;0.0000000000e+00;9.8805785179e-01;-2.2631871980e-03;-3.9637992159e-03;-1.5401574969e-01;-3.2513504639e-03;0.0000000000e+00;0.0000000000e+00;0.0000000000e+00;0.0000000000e+00;0.0000000000e+00;0.0000000000e+00;-1.2200000286e+00;2.4400000274e-01;5.9536009758e-06;0.0000000000e+00;3.1414821744e-02;5.9536009758e-06;-9.3307495117e-03;5.9536009758e-06;9.4750775024e-03;-1.7950298265e-02;5.5231656879e-02;3.0000000000e-02;5.5231656879e-02;-3.3000000000e-02;-1.7950298265e-02;1.1000000000e-02;9.4750775024e-03;0.0000000000e+00;0.0000000000e+00;0.0000000000e+00;0.0000000000e+00;0.0000000000e+00;9.0000000000e+01;0.0000000000e+00;-3.0927959551e-01;0.0000000000e+00;-1.0000000000e+01;0.0000000000e+00;0.0000000000e+00;0.0000000000e+00;
2024-04-03 15:16:34,613;1712150194.613;-7.2006983683e-03;1.4201416634e-02;-9.9925982952e-01;1.4938609314e+02;1.4920767212e+02;0.0000000000e+00;0.0000000000e+00;6.8000000000e+01;0.0000000000e+00;0.0000000000e+00;0.0000000000e+00;0.0000000000e+00;0.0000000000e+00;3.7700000000e+03;0.0000000000e+00;0.0000000000e+00;0.0000000000e+00;0.0000000000e+00;1.0000000000e+00;1.0000000000e+00;2.1900000000e+02;0.0000000000e+00;6.0000000000e+00;0.0000000000e+00;-6.4821000000e+04;0.0000000000e+00;0.0000000000e+00;0.0000000000e+00;0.0000000000e+00;0.0000000000e+00;1.5869984403e-02;1.2172612548e-01;9.2555314768e-04;1.1000000000e+01;0.0000000000e+00;0.0000000000e+00;0.0000000000e+00;0.0000000000e+00;0.0000000000e+00;1.0000000000e+00;1.0000000000e+00;1.0000000000e+00;1.0000000000e+00;1.0000000000e+00;1.0000000000e+00;0.0000000000e+00;0.0000000000e+00;1.4148750345e-03;5.9536009758e-06;0.0000000000e+00;2.4437712097e+02;5.9536009758e-06;0.0000000000e+00;5.9536009758e-06;-1.5652104378e+01;3.4432628751e-01;-4.0602066040e+01;-3.1749099493e-01;1.8657860756e+00;-1.4920767212e+02;0.0000000000e+00;0.0000000000e+00;9.8806232214e-01;-1.1078509269e-03;8.8870670879e-04;-1.5404823422e-01;-2.4630613387e-03;0.0000000000e+00;0.0000000000e+00;0.0000000000e+00;0.0000000000e+00;0.0000000000e+00;0.0000000000e+00;-1.2200000286e+00;2.4400000274e-01;5.9536009758e-06;0.0000000000e+00;1.3022962213e-01;5.9536009758e-06;-1.8654632568e-01;5.9536009758e-06;7.8667141497e-03;-2.4201862514e-02;5.6552898139e-02;3.8000000000e-02;5.6552898139e-02;-4.8000000000e-02;-2.4201862514e-02;1.1000000000e-02;7.8667141497e-03;0.0000000000e+00;0.0000000000e+00;0.0000000000e+00;0.0000000000e+00;0.0000000000e+00;9.0000000000e+01;0.0000000000e+00;-3.0932681001e-01;0.0000000000e+00;-1.0000000000e+01;0.0000000000e+00;0.0000000000e+00;0.0000000000e+00;
2024-04-03 15:16:34,715;1712150194.715;-3.0907280743e-03;5.6454511359e-03;-9.9949538708e-01;1.4935966492e+02;1.4920652771e+02;0.0000000000e+00;0.0000000000e+00;6.8000000000e+01;0.0000000000e+00;0.0000000000e+00;0.0000000000e+00;0.0000000000e+00;0.0000000000e+00;3.7700000000e+03;0.0000000000e+00;0.0000000000e+00;0.0000000000e+00;0.0000000000e+00;1.0000000000e+00;1.0000000000e+00;2.1900000000e+02;0.0000000000e+00;6.0000000000e+00;0.0000000000e+00;-6.4820000000e+04;0.0000000000e+00;0.0000000000e+00;0.0000000000e+00;0.0000000000e+00;0.0000000000e+00;-2.4817693047e-03;9.9190458655e-02;8.1657683477e-03;1.1000000000e+01;0.0000000000e+00;0.0000000000e+00;0.0000000000e+00;0.0000000000e+00;0.0000000000e+00;1.0000000000e+00;1.0000000000e+00;1.0000000000e+00;1.0000000000e+00;1.0000000000e+00;1.0000000000e+00;0.0000000000e+00;0.0000000000e+00;1.2429709003e-02;5.9536009758e-06;0.0000000000e+00;2.4437712097e+02;5.9536009758e-06;0.0000000000e+00;5.9536009758e-06;-1.5652104378e+01;3.4653490782e-01;-4.0602066040e+01;-3.2394215465e-01;1.8657860756e+00;-1.4920652771e+02;0.0000000000e+00;0.0000000000e+00;9.8805135489e-01;2.4807971204e-04;6.2511772849e-03;-1.5399843454e-01;-1.4351123374e-03;0.0000000000e+00;0.0000000000e+00;0.0000000000e+00;0.0000000000e+00;0.0000000000e+00;0.0000000000e+00;-1.2200000286e+00;2.4400000274e-01;5.9536009758e-06;0.0000000000e+00;1.3022962213e-01;5.9536009758e-06;-1.8654632568e-01;5.9536009758e-06;8.7009705603e-03;-2.4270836264e-02;4.5664619654e-02;3.8000000000e-02;4.5664619654e-02;-4.8000000000e-02;-2.4270836264e-02;1.1000000000e-02;8.7009705603e-03;0.0000000000e+00;0.0000000000e+00;0.0000000000e+00;0.0000000000e+00;0.0000000000e+00;9.0000000000e+01;0.0000000000e+00;-3.0922463300e-01;0.0000000000e+00;-1.0000000000e+01;0.0000000000e+00;0.0000000000e+00;0.0000000000e+00;
2024-04-03 15:16:34,817;1712150194.817;6.3290195540e-03;-1.6977206105e-03;-9.9739336967e-01;1.4935968018e+02;1.4920512390e+02;0.0000000000e+00;0.0000000000e+00;6.8000000000e+01;0.0000000000e+00;0.0000000000e+00;0.0000000000e+00;0.0000000000e+00;0.0000000000e+00;3.7700000000e+03;0.0000000000e+00;0.0000000000e+00;0.0000000000e+00;0.0000000000e+00;1.0000000000e+00;1.0000000000e+00;2.1900000000e+02;0.0000000000e+00;6.0000000000e+00;0.0000000000e+00;-6.4819000000e+04;0.0000000000e+00;0.0000000000e+00;0.0000000000e+00;0.0000000000e+00;0.0000000000e+00;-7.0256721228e-03;2.2536113858e-02;-2.0722565241e-03;1.1000000000e+01;0.0000000000e+00;0.0000000000e+00;0.0000000000e+00;0.0000000000e+00;0.0000000000e+00;1.0000000000e+00;1.0000000000e+00;1.0000000000e+00;1.0000000000e+00;1.0000000000e+00;1.0000000000e+00;0.0000000000e+00;0.0000000000e+00;1.6204824343e-02;5.9146245803e-06;0.0000000000e+00;2.4386688232e+02;5.9146245803e-06;0.0000000000e+00;5.9146245803e-06;-1.5650405884e+01;3.4700340033e-01;-4.0615703583e+01;-3.3041390777e-01;1.8695573807e+00;-1.4920512390e+02;0.0000000000e+00;0.0000000000e+00;9.8801988363e-01;1.2304863194e-03;8.0083636567e-03;-1.5411388874e-01;-3.6910229886e-05;0.0000000000e+00;0.0000000000e+00;0.0000000000e+00;0.0000000000e+00;0.0000000000e+00;0.0000000000e+00;-1.2159999609e+00;2.4319998920e-01;5.9146245803e-06;0.0000000000e+00;6.3559517264e-02;5.9146245803e-06;3.0523300171e-02;5.9146245803e-06;1.0068256408e-02;-2.2044463083e-02;2.8008105233e-02;6.0000000000e-03;2.8008105233e-02;-4.4000000000e-02;-2.2044463083e-02;1.5000000000e-02;1.0068256408e-02;0.0000000000e+00;0.0000000000e+00;0.0000000000e+00;0.0000000000e+00;0.0000000000e+00;9.0000000000e+01;0.0000000000e+00;-3.0947107524e-01;0.0000000000e+00;-1.0000000000e+01;0.0000000000e+00;0.0000000000e+00;0.0000000000e+00;
2024-04-03 15:16:34,920;1712150194.920;6.4259106293e-03;8.7275933474e-03;-9.9922776222e-01;1.4939404297e+02;1.4920376587e+02;0.0000000000e+00;0.0000000000e+00;6.8000000000e+01;0.0000000000e+00;0.0000000000e+00;0.0000000000e+00;0.0000000000e+00;0.0000000000e+00;3.7700000000e+03;0.0000000000e+00;0.0000000000e+00;0.0000000000e+00;0.0000000000e+00;1.0000000000e+00;1.0000000000e+00;2.1900000000e+02;0.0000000000e+00;6.0000000000e+00;0.0000000000e+00;-6.4818000000e+04;0.0000000000e+00;0.0000000000e+00;0.0000000000e+00;0.0000000000e+00;0.0000000000e+00;1.3748711906e-02;3.2035283744e-02;5.5990843102e-03;1.1000000000e+01;0.0000000000e+00;0.0000000000e+00;0.0000000000e+00;0.0000000000e+00;0.0000000000e+00;1.0000000000e+00;1.0000000000e+00;1.0000000000e+00;1.0000000000e+00;1.0000000000e+00;1.0000000000e+00;0.0000000000e+00;0.0000000000e+00;1.6945359725e-02;5.9146245803e-06;0.0000000000e+00;2.4386688232e+02;5.9146245803e-06;0.0000000000e+00;5.9146245803e-06;-1.5650405884e+01;3.4524965286e-01;-4.0615703583e+01;-3.3657184243e-01;1.8695573807e+00;-1.4920376587e+02;0.0000000000e+00;0.0000000000e+00;9.8800337315e-01;1.7143390141e-03;8.3075845614e-03;-1.5419933200e-01;8.2549752656e-04;0.0000000000e+00;0.0000000000e+00;0.0000000000e+00;0.0000000000e+00;0.0000000000e+00;0.0000000000e+00;-1.2159999609e+00;2.4319998920e-01;5.9146245803e-06;0.0000000000e+00;6.3559517264e-02;5.9146245803e-06;3.0523300171e-02;5.9146245803e-06;9.8818428814e-03;-1.9786592573e-02;8.3385175094e-03;6.0000000000e-03;8.3385175094e-03;-4.4000000000e-02;-1.9786592573e-02;1.5000000000e-02;9.8818428814e-03;0.0000000000e+00;0.0000000000e+00;0.0000000000e+00;0.0000000000e+00;0.0000000000e+00;9.0000000000e+01;0.0000000000e+00;-3.0965231654e-01;0.0000000000e+00;-1.0000000000e+01;0.0000000000e+00;0.0000000000e+00;0.0000000000e+00;
2024-04-03 15:16:35,023;1712150195.022;-3.4138569608e-03;1.6187364236e-02;-1.0064965487e+00;1.4937556458e+02;1.4920233154e+02;0.0000000000e+00;0.0000000000e+00;6.8000000000e+01;0.0000000000e+00;0.0000000000e+00;0.0000000000e+00;0.0000000000e+00;0.0000000000e+00;3.7700000000e+03;0.0000000000e+00;0.0000000000e+00;0.0000000000e+00;0.0000000000e+00;1.0000000000e+00;1.0000000000e+00;2.1900000000e+02;0.0000000000e+00;6.0000000000e+00;0.0000000000e+00;-6.4817000000e+04;0.0000000000e+00;0.0000000000e+00;0.0000000000e+00;0.0000000000e+00;0.0000000000e+00;1.8409539014e-02;-6.8872086704e-03;5.3277797997e-03;1.1000000000e+01;0.0000000000e+00;0.0000000000e+00;0.0000000000e+00;0.0000000000e+00;0.0000000000e+00;1.0000000000e+00;1.0000000000e+00;1.0000000000e+00;1.0000000000e+00;1.0000000000e+00;1.0000000000e+00;0.0000000000e+00;0.0000000000e+00;1.5770929616e-02;5.8757764236e-06;0.0000000000e+00;2.4328086853e+02;5.8757764236e-06;0.0000000000e+00;5.8757764236e-06;-1.5654894829e+01;3.4191659093e-01;-4.0628330231e+01;-3.4228733182e-01;1.8739151955e+00;-1.4920233154e+02;0.0000000000e+00;0.0000000000e+00;9.8800206184e-01;2.4280438665e-03;7.6018325053e-03;-1.5423445404e-01;2.4528981207e-03;0.0000000000e+00;0.0000000000e+00;0.0000000000e+00;0.0000000000e+00;0.0000000000e+00;0.0000000000e+00;-1.2120000124e+00;2.4240000546e-01;5.8757764236e-06;0.0000000000e+00;1.0530623794e-01;5.8757764236e-06;-2.9085159302e-02;5.8757764236e-06;8.5962358862e-03;-1.4257888310e-02;-7.2790714912e-03;-2.5000000000e-02;-7.2790714912e-03;-3.9000000000e-02;-1.4257888310e-02;1.5000000000e-02;8.5962358862e-03;0.0000000000e+00;0.0000000000e+00;0.0000000000e+00;0.0000000000e+00;0.0000000000e+00;9.0000000000e+01;0.0000000000e+00;-3.0973446623e-01;0.0000000000e+00;-1.0000000000e+01;0.0000000000e+00;0.0000000000e+00;0.0000000000e+00;
2024-04-03 15:16:35,126;1712150195.126;5.5814525113e-03;4.8827636056e-03;-1.0016189814e+00;1.4933064270e+02;1.4920097351e+02;0.0000000000e+00;0.0000000000e+00;6.8000000000e+01;0.0000000000e+00;0.0000000000e+00;0.0000000000e+00;0.0000000000e+00;0.0000000000e+00;3.7700000000e+03;0.0000000000e+00;0.0000000000e+00;0.0000000000e+00;0.0000000000e+00;1.0000000000e+00;1.0000000000e+00;2.1900000000e+02;0.0000000000e+00;6.0000000000e+00;0.0000000000e+00;-6.4816000000e+04;0.0000000000e+00;0.0000000000e+00;0.0000000000e+00;0.0000000000e+00;0.0000000000e+00;-2.9084432870e-02;1.2390919961e-02;9.0986778960e-03;1.1000000000e+01;0.0000000000e+00;0.0000000000e+00;0.0000000000e+00;0.0000000000e+00;0.0000000000e+00;1.0000000000e+00;1.0000000000e+00;1.0000000000e+00;1.0000000000e+00;1.0000000000e+00;1.0000000000e+00;0.0000000000e+00;0.0000000000e+00;1.4620444656e-02;5.8757764236e-06;0.0000000000e+00;2.4328086853e+02;5.8757764236e-06;0.0000000000e+00;5.8757764236e-06;-1.5654894829e+01;3.3749857545e-01;-4.0628330231e+01;-3.4785854816e-01;1.8739151955e+00;-1.4920097351e+02;0.0000000000e+00;0.0000000000e+00;9.8799693584e-01;2.0272822585e-03;7.0821521804e-03;-1.5429776907e-01;1.8203777364e-03;0.0000000000e+00;0.0000000000e+00;0.0000000000e+00;0.0000000000e+00;0.0000000000e+00;0.0000000000e+00;-1.2120000124e+00;2.4240000546e-01;5.8757764236e-06;0.0000000000e+00;1.0530623794e-01;5.8757764236e-06;-2.9085159302e-02;5.8757764236e-06;8.0936783925e-03;-1.1925121769e-02;-1.8501089886e-02;-2.5000000000e-02;-1.8501089886e-02;-3.9000000000e-02;-1.1925121769e-02;1.5000000000e-02;8.0936783925e-03;0.0000000000e+00;0.0000000000e+00;0.0000000000e+00;0.0000000000e+00;0.0000000000e+00;9.0000000000e+01;0.0000000000e+00;-3.0985512736e-01;0.0000000000e+00;-1.0000000000e+01;0.0000000000e+00;0.0000000000e+00;0.0000000000e+00;
2024-04-03 15:16:35,228;1712150195.228;1.1498035863e-02;6.1073461547e-03;-1.0006264448e+00;1.4941519165e+02;1.4920004272e+02;0.0000000000e+00;0.0000000000e+00;6.8000000000e+01;0.0000000000e+00;0.0000000000e+00;0.0000000000e+00;0.0000000000e+00;0.0000000000e+00;3.7700000000e+03;0.0000000000e+00;0.0000000000e+00;0.0000000000e+00;0.0000000000e+00;1.0000000000e+00;1.0000000000e+00;2.1900000000e+02;0.0000000000e+00;6.0000000000e+00;0.0000000000e+00;-6.4815000000e+04;0.0000000000e+00;0.0000000000e+00;0.0000000000e+00;0.0000000000e+00;0.0000000000e+00;-1.3378076255e-02;1.8943052739e-02;7.0757875219e-03;1.1000000000e+01;0.0000000000e+00;0.0000000000e+00;0.0000000000e+00;0.0000000000e+00;0.0000000000e+00;1.0000000000e+00;1.0000000000e+00;1.0000000000e+00;1.0000000000e+00;1.0000000000e+00;1.0000000000e+00;0.0000000000e+00;0.0000000000e+00;1.4987545113e-02;5.8757764236e-06;0.0000000000e+00;2.4389378357e+02;5.8757764236e-06;0.0000000000e+00;5.8757764236e-06;-1.5664956093e+01;3.3355128765e-01;-4.0638114929e+01;-3.5060560703e-01;1.8750064373e+00;-1.4920004272e+02;0.0000000000e+00;0.0000000000e+00;9.8800629377e-01;1.7695277929e-03;7.3082237504e-03;-1.5423050523e-01;1.2423073966e-03;0.0000000000e+00;0.0000000000e+00;0.0000000000e+00;0.0000000000e+00;0.0000000000e+00;0.0000000000e+00;-1.2120000124e+00;2.4240000546e-01;5.8757764236e-06;0.0000000000e+00;4.8917677253e-02;5.8757764236e-06;-6.9210052490e-02;5.8757764236e-06;6.8924855441e-03;-3.9193648845e-03;-2.7663990855e-02;-5.0000000000e-02;-2.7663990855e-02;-2.4000000000e-02;-3.9193648845e-03;7.0000000000e-03;6.8924855441e-03;0.0000000000e+00;0.0000000000e+00;0.0000000000e+00;0.0000000000e+00;0.0000000000e+00;9.0000000000e+01;0.0000000000e+00;-3.0971532521e-01;0.0000000000e+00;-1.0000000000e+01;0.0000000000e+00;0.0000000000e+00;0.0000000000e+00;
2024-04-03 15:16:35,331;1712150195.331;-3.0608307570e-03;1.2828775682e-02;-1.0042480230e+00;1.4940989685e+02;1.4919955444e+02;0.0000000000e+00;0.0000000000e+00;6.8000000000e+01;0.0000000000e+00;0.0000000000e+00;0.0000000000e+00;0.0000000000e+00;0.0000000000e+00;3.7610000000e+03;0.0000000000e+00;0.0000000000e+00;0.0000000000e+00;0.0000000000e+00;1.0000000000e+00;1.0000000000e+00;2.1900000000e+02;0.0000000000e+00;6.0000000000e+00;0.0000000000e+00;-6.4813000000e+04;0.0000000000e+00;0.0000000000e+00;0.0000000000e+00;0.0000000000e+00;0.0000000000e+00;-8.7495017797e-03;1.1868237518e-02;-6.6939573735e-03;1.1000000000e+01;0.0000000000e+00;0.0000000000e+00;0.0000000000e+00;0.0000000000e+00;0.0000000000e+00;1.0000000000e+00;1.0000000000e+00;1.0000000000e+00;1.0000000000e+00;1.0000000000e+00;1.0000000000e+00;0.0000000000e+00;0.0000000000e+00;1.3392547976e-02;5.8757764236e-06;0.0000000000e+00;2.4389378357e+02;5.8757764236e-06;0.0000000000e+00;5.8757764236e-06;-1.5664956093e+01;3.2807648182e-01;-4.0638114929e+01;-3.5239207745e-01;1.8750064373e+00;-1.4919955444e+02;0.0000000000e+00;0.0000000000e+00;9.8801839352e-01;1.0632973863e-03;6.6113374196e-03;-1.5419094265e-01;6.2298051080e-05;0.0000000000e+00;0.0000000000e+00;0.0000000000e+00;0.0000000000e+00;0.0000000000e+00;0.0000000000e+00;-1.2120000124e+00;2.4240000546e-01;5.8757764236e-06;0.0000000000e+00;4.8917677253e-02;5.8757764236e-06;-6.9210052490e-02;5.8757764236e-06;4.7743972391e-03;2.0468446892e-03;-3.6895882338e-02;-5.0000000000e-02;-3.6895882338e-02;-2.4000000000e-02;2.0468446892e-03;7.0000000000e-03;4.7743972391e-03;0.0000000000e+00;0.0000000000e+00;0.0000000000e+00;0.0000000000e+00;0.0000000000e+00;9.0000000000e+01;0.0000000000e+00;-3.0962452200e-01;0.0000000000e+00;-1.0000000000e+01;0.0000000000e+00;0.0000000000e+00;0.0000000000e+00;
2024-04-03 15:16:35,433;1712150195.433;1.4007179998e-03;1.5636323020e-02;-1.0119214058e+00;1.4941778564e+02;1.4919964600e+02;0.0000000000e+00;0.0000000000e+00;6.8000000000e+01;0.0000000000e+00;0.0000000000e+00;0.0000000000e+00;0.0000000000e+00;0.0000000000e+00;3.7610000000e+03;0.0000000000e+00;0.0000000000e+00;0.0000000000e+00;0.0000000000e+00;1.0000000000e+00;1.0000000000e+00;2.1900000000e+02;0.0000000000e+00;6.0000000000e+00;0.0000000000e+00;-6.4812000000e+04;0.0000000000e+00;0.0000000000e+00;0.0000000000e+00;0.0000000000e+00;0.0000000000e+00;-1.8244579434e-02;3.9895746857e-02;9.8351119086e-03;1.1000000000e+01;0.0000000000e+00;0.0000000000e+00;0.0000000000e+00;0.0000000000e+00;0.0000000000e+00;1.0000000000e+00;1.0000000000e+00;1.0000000000e+00;1.0000000000e+00;1.0000000000e+00;1.0000000000e+00;0.0000000000e+00;0.0000000000e+00;1.3634890036e-02;5.8660843933e-06;0.0000000000e+00;2.4436338806e+02;5.8660843933e-06;0.0000000000e+00;5.8660843933e-06;-1.5681220055e+01;3.2107749581e-01;-4.0646446228e+01;-3.5437986255e-01;1.8743511438e+00;-1.4919964600e+02;0.0000000000e+00;0.0000000000e+00;9.8800861835e-01;1.2718746439e-03;6.7014079541e-03;-1.5424813330e-01;4.4588687994e-04;0.0000000000e+00;0.0000000000e+00;0.0000000000e+00;0.0000000000e+00;0.0000000000e+00;0.0000000000e+00;-1.2109999657e+00;2.4220000207e-01;5.8660843933e-06;0.0000000000e+00;6.5332964063e-02;5.8660843933e-06;1.8535614014e-02;5.8660843933e-06;-4.1257590055e-04;7.1933520958e-03;-4.6915207058e-02;-7.4000000000e-02;-4.6915207058e-02;-1.9000000000e-02;7.1933520958e-03;-1.0000000000e-03;-4.1257590055e-04;0.0000000000e+00;0.0000000000e+00;0.0000000000e+00;0.0000000000e+00;0.0000000000e+00;9.0000000000e+01;0.0000000000e+00;-3.0974317836e-01;0.0000000000e+00;1.0000000000e+01;0.0000000000e+00;0.0000000000e+00;0.0000000000e+00;
2024-04-03 15:16:35,535;1712150195.534;9.4881672412e-03;9.3080708757e-03;-1.0012679100e+00;1.4938870239e+02;1.4920011902e+02;0.0000000000e+00;0.0000000000e+00;6.8000000000e+01;0.0000000000e+00;0.0000000000e+00;0.0000000000e+00;0.0000000000e+00;0.0000000000e+00;3.7610000000e+03;0.0000000000e+00;0.0000000000e+00;0.0000000000e+00;0.0000000000e+00;1.0000000000e+00;1.0000000000e+00;2.1900000000e+02;0.0000000000e+00;6.0000000000e+00;0.0000000000e+00;-6.4811000000e+04;0.0000000000e+00;0.0000000000e+00;0.0000000000e+00;0.0000000000e+00;0.0000000000e+00;-2.5370387360e-02;1.5032707714e-02;7.3642218485e-03;1.1000000000e+01;0.0000000000e+00;0.0000000000e+00;0.0000000000e+00;0.0000000000e+00;0.0000000000e+00;1.0000000000e+00;1.0000000000e+00;1.0000000000e+00;1.0000000000e+00;1.0000000000e+00;1.0000000000e+00;0.0000000000e+00;0.0000000000e+00;1.2127871109e-02;5.8660843933e-06;0.0000000000e+00;2.4436338806e+02;5.8660843933e-06;0.0000000000e+00;5.8660843933e-06;-1.5681220055e+01;3.1258216500e-01;-4.0646446228e+01;-3.5652324557e-01;1.8743511438e+00;-1.4920011902e+02;0.0000000000e+00;0.0000000000e+00;9.8801374435e-01;9.1739092022e-04;5.9941294603e-03;-1.5424679220e-01;-3.6360806178e-05;0.0000000000e+00;0.0000000000e+00;0.0000000000e+00;0.0000000000e+00;0.0000000000e+00;0.0000000000e+00;-1.2109999657e+00;2.4220000207e-01;5.8660843933e-06;0.0000000000e+00;6.5332964063e-02;5.8660843933e-06;1.8535614014e-02;5.8660843933e-06;-3.2828990370e-03;1.0083787143e-02;-5.8012321591e-02;-7.4000000000e-02;-5.8012321591e-02;-1.9000000000e-02;1.0083787143e-02;-1.0000000000e-03;-3.2828990370e-03;0.0000000000e+00;0.0000000000e+00;0.0000000000e+00;0.0000000000e+00;0.0000000000e+00;9.0000000000e+01;0.0000000000e+00;-3.0973567425e-01;0.0000000000e+00;1.0000000000e+01;0.0000000000e+00;0.0000000000e+00;0.0000000000e+00;
2024-04-03 15:16:35,638;1712150195.637;1.3955824077e-02;5.5826269090e-03;-9.9442571402e-01;1.4933316040e+02;1.4920086670e+02;0.0000000000e+00;0.0000000000e+00;6.8000000000e+01;0.0000000000e+00;0.0000000000e+00;0.0000000000e+00;0.0000000000e+00;0.0000000000e+00;3.7610000000e+03;0.0000000000e+00;0.0000000000e+00;0.0000000000e+00;0.0000000000e+00;1.0000000000e+00;1.0000000000e+00;2.1900000000e+02;0.0000000000e+00;6.0000000000e+00;0.0000000000e+00;-6.4810000000e+04;0.0000000000e+00;0.0000000000e+00;0.0000000000e+00;0.0000000000e+00;0.0000000000e+00;-3.8758493960e-02;-1.0221408308e-01;-7.2526894510e-03;1.1000000000e+01;0.0000000000e+00;0.0000000000e+00;0.0000000000e+00;0.0000000000e+00;0.0000000000e+00;1.0000000000e+00;1.0000000000e+00;1.0000000000e+00;1.0000000000e+00;1.0000000000e+00;1.0000000000e+00;0.0000000000e+00;0.0000000000e+00;2.8605180855e-03;5.8757764236e-06;0.0000000000e+00;2.4367437744e+02;5.8757764236e-06;0.0000000000e+00;5.8757764236e-06;-1.5704587936e+01;3.0239337683e-01;-4.0653640747e+01;-3.5855773091e-01;1.8708832264e+00;-1.4920086670e+02;0.0000000000e+00;0.0000000000e+00;9.8803621531e-01;-1.1199659639e-04;1.4650559751e-03;-1.5421533585e-01;-6.7318157417e-04;0.0000000000e+00;0.0000000000e+00;0.0000000000e+00;0.0000000000e+00;0.0000000000e+00;0.0000000000e+00;-1.2120000124e+00;2.4240000546e-01;5.8757764236e-06;0.0000000000e+00;8.3656758070e-02;5.8757764236e-06;-1.9736289978e-02;5.8757764236e-06;-4.9025919288e-03;1.2586776167e-02;-6.6337339580e-02;-1.0200000000e-01;-6.6337339580e-02;-1.1000000000e-02;1.2586776167e-02;-1.0000000000e-02;-4.9025919288e-03;0.0000000000e+00;0.0000000000e+00;0.0000000000e+00;0.0000000000e+00;0.0000000000e+00;9.0000000000e+01;0.0000000000e+00;-3.0966586674e-01;0.0000000000e+00;1.0000000000e+01;0.0000000000e+00;0.0000000000e+00;0.0000000000e+00;
2024-04-03 15:16:35,741;1712150195.740;2.0897081122e-02;-8.0239577219e-03;-9.8495018482e-01;1.4932254028e+02;1.4920358276e+02;0.0000000000e+00;0.0000000000e+00;6.8000000000e+01;0.0000000000e+00;0.0000000000e+00;0.0000000000e+00;0.0000000000e+00;0.0000000000e+00;3.7610000000e+03;0.0000000000e+00;0.0000000000e+00;0.0000000000e+00;0.0000000000e+00;1.0000000000e+00;1.0000000000e+00;2.1900000000e+02;0.0000000000e+00;6.0000000000e+00;0.0000000000e+00;-6.4809000000e+04;0.0000000000e+00;0.0000000000e+00;0.0000000000e+00;0.0000000000e+00;0.0000000000e+00;6.5707126632e-03;-3.4823827446e-02;3.5794773139e-03;1.1000000000e+01;0.0000000000e+00;0.0000000000e+00;0.0000000000e+00;0.0000000000e+00;0.0000000000e+00;1.0000000000e+00;1.0000000000e+00;1.0000000000e+00;1.0000000000e+00;1.0000000000e+00;1.0000000000e+00;0.0000000000e+00;0.0000000000e+00;-1.5066401859e-02;5.8854775489e-06;0.0000000000e+00;2.4447793579e+02;5.8854775489e-06;0.0000000000e+00;5.8854775489e-06;-1.5731145859e+01;2.7957099676e-01;-4.0661560059e+01;-3.6415964365e-01;1.8655649424e+00;-1.4920358276e+02;0.0000000000e+00;0.0000000000e+00;9.8804390430e-01;-1.2629630510e-03;-7.4272342026e-03;-1.5398889780e-01;-2.0830265206e-04;0.0000000000e+00;0.0000000000e+00;0.0000000000e+00;0.0000000000e+00;0.0000000000e+00;0.0000000000e+00;-1.2130000591e+00;2.4260000885e-01;5.8854775489e-06;0.0000000000e+00;2.8928272426e-02;5.8854775489e-06;-7.3804855347e-03;5.8854775489e-06;-9.2643778771e-03;-1.4302711934e-03;-5.4120570421e-02;-9.3000000000e-02;-5.4120570421e-02;-2.4000000000e-02;-1.4302711934e-03;-1.8000000000e-02;-9.2643778771e-03;0.0000000000e+00;0.0000000000e+00;0.0000000000e+00;0.0000000000e+00;0.0000000000e+00;9.0000000000e+01;0.0000000000e+00;-3.0921855751e-01;0.0000000000e+00;1.0000000000e+01;0.0000000000e+00;0.0000000000e+00;0.0000000000e+00;
2024-04-03 15:16:35,843;1712150195.842;8.4591992199e-03;1.1694383807e-02;-1.0014278889e+00;1.4936747742e+02;1.4920532227e+02;0.0000000000e+00;0.0000000000e+00;6.8000000000e+01;0.0000000000e+00;0.0000000000e+00;0.0000000000e+00;0.0000000000e+00;0.0000000000e+00;3.7610000000e+03;0.0000000000e+00;0.0000000000e+00;0.0000000000e+00;0.0000000000e+00;1.0000000000e+00;1.0000000000e+00;2.1900000000e+02;0.0000000000e+00;6.0000000000e+00;0.0000000000e+00;-6.4808000000e+04;0.0000000000e+00;0.0000000000e+00;0.0000000000e+00;0.0000000000e+00;0.0000000000e+00;1.6255341470e-02;-5.8274995536e-03;9.0838512406e-03;1.1000000000e+01;0.0000000000e+00;0.0000000000e+00;0.0000000000e+00;0.0000000000e+00;0.0000000000e+00;1.0000000000e+00;1.0000000000e+00;1.0000000000e+00;1.0000000000e+00;1.0000000000e+00;1.0000000000e+00;0.0000000000e+00;0.0000000000e+00;-1.6924452237e-02;5.8854775489e-06;0.0000000000e+00;2.4447793579e+02;5.8854775489e-06;0.0000000000e+00;5.8854775489e-06;-1.5731145859e+01;2.6936233044e-01;-4.0661560059e+01;-3.6859345436e-01;1.8655649424e+00;-1.4920532227e+02;0.0000000000e+00;0.0000000000e+00;9.8805069923e-01;-5.2690267330e-04;-8.4820790216e-03;-1.5389485657e-01;1.5694841497e-03;0.0000000000e+00;0.0000000000e+00;0.0000000000e+00;0.0000000000e+00;0.0000000000e+00;0.0000000000e+00;-1.2130000591e+00;2.4260000885e-01;5.8854775489e-06;0.0000000000e+00;2.8928272426e-02;5.8854775489e-06;-7.3804855347e-03;5.8854775489e-06;-1.1793033220e-02;-7.5280629098e-03;-4.1544932872e-02;-9.3000000000e-02;-4.1544932872e-02;-2.4000000000e-02;-7.5280629098e-03;-1.8000000000e-02;-1.1793033220e-02;0.0000000000e+00;0.0000000000e+00;0.0000000000e+00;0.0000000000e+00;0.0000000000e+00;9.0000000000e+01;0.0000000000e+00;-3.0901574927e-01;0.0000000000e+00;1.0000000000e+01;0.0000000000e+00;0.0000000000e+00;0.0000000000e+00;
2024-04-03 15:16:35,945;1712150195.945;1.9534262829e-03;1.4727653936e-02;-9.9925005436e-01;1.4937545776e+02;1.4920736694e+02;0.0000000000e+00;0.0000000000e+00;6.8000000000e+01;0.0000000000e+00;0.0000000000e+00;0.0000000000e+00;0.0000000000e+00;0.0000000000e+00;3.7610000000e+03;0.0000000000e+00;0.0000000000e+00;0.0000000000e+00;0.0000000000e+00;1.0000000000e+00;1.0000000000e+00;2.1900000000e+02;0.0000000000e+00;6.0000000000e+00;0.0000000000e+00;-6.4807000000e+04;0.0000000000e+00;0.0000000000e+00;0.0000000000e+00;0.0000000000e+00;0.0000000000e+00;-1.6404241323e-02;-7.3213139549e-03;-6.7759968806e-04;1.1000000000e+01;0.0000000000e+00;0.0000000000e+00;0.0000000000e+00;0.0000000000e+00;0.0000000000e+00;1.0000000000e+00;1.0000000000e+00;1.0000000000e+00;1.0000000000e+00;1.0000000000e+00;1.0000000000e+00;0.0000000000e+00;0.0000000000e+00;-1.7830796132e-02;5.9243566284e-06;0.0000000000e+00;2.4581069946e+02;5.9243566284e-06;0.0000000000e+00;5.9243566284e-06;-1.5750793457e+01;2.6066330075e-01;-4.0670974731e+01;-3.7350657582e-01;1.8604938984e+00;-1.4920736694e+02;0.0000000000e+00;0.0000000000e+00;9.8806923628e-01;-4.7328491928e-04;-8.9489109814e-03;-1.5374946594e-01;1.8165049917e-03;0.0000000000e+00;0.0000000000e+00;0.0000000000e+00;0.0000000000e+00;0.0000000000e+00;0.0000000000e+00;-1.2170000076e+00;2.4340000749e-01;5.9243566284e-06;0.0000000000e+00;1.4129975438e-01;5.9243566284e-06;1.1711120605e-02;5.9243566284e-06;-1.2192424387e-02;-1.0774176568e-02;-2.7430653572e-02;-6.0000000000e-02;-2.7430653572e-02;-2.9000000000e-02;-1.0774176568e-02;-1.9000000000e-02;-1.2192424387e-02;0.0000000000e+00;0.0000000000e+00;0.0000000000e+00;0.0000000000e+00;0.0000000000e+00;9.0000000000e+01;0.0000000000e+00;-3.0871979704e-01;0.0000000000e+00;1.0000000000e+01;0.0000000000e+00;0.0000000000e+00;0.0000000000e+00;
2024-04-03 15:16:36,047;1712150196.046;9.2981830239e-03;1.0930151679e-02;-9.9796926975e-01;1.4937812805e+02;1.4920909119e+02;0.0000000000e+00;0.0000000000e+00;6.8000000000e+01;0.0000000000e+00;0.0000000000e+00;0.0000000000e+00;0.0000000000e+00;0.0000000000e+00;3.7610000000e+03;0.0000000000e+00;0.0000000000e+00;0.0000000000e+00;0.0000000000e+00;1.0000000000e+00;1.0000000000e+00;2.1900000000e+02;0.0000000000e+00;6.0000000000e+00;0.0000000000e+00;-6.4806000000e+04;0.0000000000e+00;0.0000000000e+00;0.0000000000e+00;0.0000000000e+00;0.0000000000e+00;-2.9926947318e-03;2.3681961466e-03;6.6495100036e-03;1.1000000000e+01;0.0000000000e+00;0.0000000000e+00;0.0000000000e+00;0.0000000000e+00;0.0000000000e+00;1.0000000000e+00;1.0000000000e+00;1.0000000000e+00;1.0000000000e+00;1.0000000000e+00;1.0000000000e+00;0.0000000000e+00;0.0000000000e+00;-1.8324770179e-02;5.9243566284e-06;0.0000000000e+00;2.4581069946e+02;5.9243566284e-06;0.0000000000e+00;5.9243566284e-06;-1.5750793457e+01;2.5350111723e-01;-4.0670974731e+01;-3.7793973088e-01;1.8604938984e+00;-1.4920909119e+02;0.0000000000e+00;0.0000000000e+00;9.8806774616e-01;-9.2059414601e-04;-9.1292625293e-03;-1.5374635160e-01;9.8796300559e-04;0.0000000000e+00;0.0000000000e+00;0.0000000000e+00;0.0000000000e+00;0.0000000000e+00;0.0000000000e+00;-1.2170000076e+00;2.4340000749e-01;5.9243566284e-06;0.0000000000e+00;1.4129975438e-01;5.9243566284e-06;1.1711120605e-02;5.9243566284e-06;-1.0136917233e-02;-1.1885275133e-02;-1.1863431893e-02;-6.0000000000e-02;-1.1863431893e-02;-2.9000000000e-02;-1.1885275133e-02;-1.9000000000e-02;-1.0136917233e-02;0.0000000000e+00;0.0000000000e+00;0.0000000000e+00;0.0000000000e+00;0.0000000000e+00;9.0000000000e+01;0.0000000000e+00;-3.0872123777e-01;0.0000000000e+00;1.0000000000e+01;0.0000000000e+00;0.0000000000e+00;0.0000000000e+00;
2024-04-03 15:16:36,148;1712150196.149;4.1340473108e-03;9.6661141142e-03;-9.9947643280e-01;1.4936758423e+02;1.4921026611e+02;0.0000000000e+00;0.0000000000e+00;6.8000000000e+01;0.0000000000e+00;0.0000000000e+00;0.0000000000e+00;0.0000000000e+00;0.0000000000e+00;3.7610000000e+03;0.0000000000e+00;0.0000000000e+00;0.0000000000e+00;0.0000000000e+00;1.0000000000e+00;1.0000000000e+00;2.1900000000e+02;0.0000000000e+00;6.0000000000e+00;0.0000000000e+00;-6.4805000000e+04;0.0000000000e+00;0.0000000000e+00;0.0000000000e+00;0.0000000000e+00;0.0000000000e+00;-1.4560432173e-02;6.1131015420e-02;-4.4220844284e-03;1.1000000000e+01;0.0000000000e+00;0.0000000000e+00;0.0000000000e+00;0.0000000000e+00;0.0000000000e+00;1.0000000000e+00;1.0000000000e+00;1.0000000000e+00;1.0000000000e+00;1.0000000000e+00;1.0000000000e+00;0.0000000000e+00;0.0000000000e+00;-1.6080900290e-02;5.9146245803e-06;0.0000000000e+00;2.4641488647e+02;5.9146245803e-06;0.0000000000e+00;5.9146245803e-06;-1.5763150215e+01;2.4846141040e-01;-4.0683399200e+01;-3.8306021690e-01;1.8567204475e+00;-1.4921026611e+02;0.0000000000e+00;0.0000000000e+00;9.8808270693e-01;-9.6684391610e-04;-7.9866647720e-03;-1.5371361375e-01;5.4467470951e-04;0.0000000000e+00;0.0000000000e+00;0.0000000000e+00;0.0000000000e+00;0.0000000000e+00;0.0000000000e+00;-1.2159999609e+00;2.4319998920e-01;5.9146245803e-06;0.0000000000e+00;-7.4781492352e-02;5.9146245803e-06;8.1871032715e-02;5.9146245803e-06;-6.3518290408e-03;-1.7401522025e-02;4.8697083257e-03;-2.5000000000e-02;4.8697083257e-03;-4.4000000000e-02;-1.7401522025e-02;-1.0000000000e-02;-6.3518290408e-03;0.0000000000e+00;0.0000000000e+00;0.0000000000e+00;0.0000000000e+00;0.0000000000e+00;9.0000000000e+01;0.0000000000e+00;-3.0865661974e-01;0.0000000000e+00;1.0000000000e+01;0.0000000000e+00;0.0000000000e+00;0.0000000000e+00;
2024-04-03 15:16:36,251;1712150196.251;5.4524950683e-03;9.0736160055e-03;-9.9706017971e-01;1.4933854675e+02;1.4921073914e+02;0.0000000000e+00;0.0000000000e+00;6.8000000000e+01;0.0000000000e+00;0.0000000000e+00;0.0000000000e+00;0.0000000000e+00;0.0000000000e+00;3.7560000000e+03;0.0000000000e+00;0.0000000000e+00;0.0000000000e+00;0.0000000000e+00;1.0000000000e+00;1.0000000000e+00;2.1900000000e+02;0.0000000000e+00;6.0000000000e+00;0.0000000000e+00;-6.4804000000e+04;0.0000000000e+00;0.0000000000e+00;0.0000000000e+00;0.0000000000e+00;0.0000000000e+00;2.5105219334e-02;3.0572991818e-02;-1.2495842762e-02;1.1000000000e+01;0.0000000000e+00;0.0000000000e+00;0.0000000000e+00;0.0000000000e+00;0.0000000000e+00;1.0000000000e+00;1.0000000000e+00;1.0000000000e+00;1.0000000000e+00;1.0000000000e+00;1.0000000000e+00;0.0000000000e+00;0.0000000000e+00;-1.3485798437e-02;5.9146245803e-06;0.0000000000e+00;2.4641488647e+02;5.9146245803e-06;0.0000000000e+00;5.9146245803e-06;-1.5763150215e+01;2.4478299916e-01;-4.0683399200e+01;-3.8975921273e-01;1.8567204475e+00;-1.4921073914e+02;0.0000000000e+00;0.0000000000e+00;9.8807233572e-01;-6.4389529871e-04;-6.7238337360e-03;-1.5384270251e-01;7.9639521370e-04;0.0000000000e+00;0.0000000000e+00;0.0000000000e+00;0.0000000000e+00;0.0000000000e+00;0.0000000000e+00;-1.2159999609e+00;2.4319998920e-01;5.9146245803e-06;0.0000000000e+00;-7.4781492352e-02;5.9146245803e-06;8.1871032715e-02;5.9146245803e-06;-3.1498305034e-03;-2.3935625330e-02;1.7329510301e-02;-2.5000000000e-02;1.7329510301e-02;-4.4000000000e-02;-2.3935625330e-02;-1.0000000000e-02;-3.1498305034e-03;0.0000000000e+00;0.0000000000e+00;0.0000000000e+00;0.0000000000e+00;0.0000000000e+00;9.0000000000e+01;0.0000000000e+00;-3.0891396595e-01;0.0000000000e+00;1.0000000000e+01;0.0000000000e+00;0.0000000000e+00;0.0000000000e+00;
2024-04-03 15:16:36,354;1712150196.354;3.8272812963e-03;1.0014616884e-02;-9.9452459812e-01;1.4938610840e+02;1.4921057129e+02;0.0000000000e+00;0.0000000000e+00;6.8000000000e+01;0.0000000000e+00;0.0000000000e+00;0.0000000000e+00;0.0000000000e+00;0.0000000000e+00;3.7560000000e+03;0.0000000000e+00;0.0000000000e+00;0.0000000000e+00;0.0000000000e+00;1.0000000000e+00;1.0000000000e+00;2.1900000000e+02;0.0000000000e+00;6.0000000000e+00;0.0000000000e+00;-6.4803000000e+04;0.0000000000e+00;0.0000000000e+00;0.0000000000e+00;0.0000000000e+00;0.0000000000e+00;-1.8187027425e-02;1.3375287876e-02;-1.3623483246e-03;1.1000000000e+01;0.0000000000e+00;0.0000000000e+00;0.0000000000e+00;0.0000000000e+00;0.0000000000e+00;1.0000000000e+00;1.0000000000e+00;1.0000000000e+00;1.0000000000e+00;1.0000000000e+00;1.0000000000e+00;0.0000000000e+00;0.0000000000e+00;-1.3429967303e-02;5.9146245803e-06;0.0000000000e+00;2.4685426331e+02;5.9146245803e-06;0.0000000000e+00;5.9146245803e-06;-1.5772299767e+01;2.4095430970e-01;-4.0697448730e+01;-3.9640730619e-01;1.8571194410e+00;-1.4921057129e+02;0.0000000000e+00;0.0000000000e+00;9.8805612326e-01;-5.1370926667e-04;-6.7159077153e-03;-1.5394765139e-01;1.0526493035e-03;0.0000000000e+00;0.0000000000e+00;0.0000000000e+00;0.0000000000e+00;0.0000000000e+00;0.0000000000e+00;-1.2159999609e+00;2.4319998920e-01;5.9146245803e-06;0.0000000000e+00;-1.2055397034e-01;5.9146245803e-06;9.1814041138e-02;5.9146245803e-06;1.3639498502e-03;-2.5980325416e-02;2.2780071944e-02;-8.0000000000e-03;2.2780071944e-02;-5.1000000000e-02;-2.5980325416e-02;2.0000000000e-03;1.3639498502e-03;0.0000000000e+00;0.0000000000e+00;0.0000000000e+00;0.0000000000e+00;0.0000000000e+00;9.0000000000e+01;0.0000000000e+00;-3.0912466174e-01;0.0000000000e+00;1.0000000000e+01;0.0000000000e+00;0.0000000000e+00;0.0000000000e+00;
